City_ID,City,Lat,Lng,Max Temp,Humidity,Cloudiness,Wind Speed,Country,Date
0,port elizabeth,-33.918,25.5701,294.44,97,75,2.57,ZA,1710118662
1,port-aux-francais,-49.35,70.2167,280.9,94,100,16.45,TF,1710118662
2,nikolayevsk-on-amure,53.1406,140.73,266.58,81,68,2.02,RU,1710118662
3,marsh harbour,26.5412,-77.0636,296.27,80,100,7.53,BS,1710118662
4,albany,42.6001,-73.9662,274.45,72,97,3.58,US,1710118489
5,wailua homesteads,22.0669,-159.378,295.79,77,75,7.2,US,1710118663
6,tolanaro,-25.0319,46.9987,297.19,83,20,3.09,MG,1710118663
7,batala,31.8186,75.2028,287.03,48,3,1.27,IN,1710118663
8,leskovac,42.9981,21.9461,285.92,72,100,1.41,RS,1710118663
9,hawaiian paradise park,19.5933,-154.9731,296.88,80,100,3.6,US,1710118664
10,olonkinbyen,70.9221,-8.7187,273.1,93,40,2.55,SJ,1710118664
11,keflavik,64.0049,-22.5624,274.39,80,0,3.09,IS,1710118664
12,vila franca do campo,37.7167,-25.4333,289.38,86,95,6.22,PT,1710118664
13,invercargill,-46.4,168.35,287.6,69,74,7.15,NZ,1710118665
14,ushuaia,-54.8,-68.3,279.96,70,40,5.14,AR,1710118367
15,tazovsky,67.4667,78.7,248.12,98,100,2.02,RU,1710118665
16,bamboo flat,11.7,92.7167,296.2,88,0,1.03,IN,1710118665
17,shahin dezh,36.6793,46.5669,277.62,77,100,0.97,IR,1710118666
18,laguna,38.421,-121.4238,290.4,53,40,4.12,US,1710118666
19,yellowknife,62.456,-114.3525,263.94,96,100,7.72,CA,1710118666
20,yambio,4.5721,28.3955,296.28,76,90,2.2,SS,1710118666
21,puerto natales,-51.7236,-72.4875,277.84,88,58,4.4,CL,1710118667
22,vernon,50.2581,-119.2691,283.35,61,100,2.06,CA,1710118667
23,suva,-18.1416,178.4415,302.86,74,75,1.54,FJ,1710118653
24,piti village,13.4626,144.6933,302.21,71,0,9.26,GU,1710118667
25,punta arenas,-53.15,-70.9167,280.21,70,40,9.26,CL,1710118667
26,celestun,20.8667,-90.4,297.51,83,82,8.5,MX,1710118668
27,georgetown,5.4112,100.3354,301.11,74,20,4.12,MY,1710118351
28,freetown,8.484,-13.2299,300.99,78,100,7.2,SL,1710118668
29,kilinochchi,9.3961,80.3982,297.82,82,27,3.3,LK,1710118668
30,gadzhiyevo,69.2551,33.3362,272.79,95,100,8.89,RU,1710118669
31,sherbakul',54.6316,72.3963,261.96,96,94,3.85,RU,1710118669
32,zarinsk,53.7074,84.9493,270.58,97,100,2.96,RU,1710118669
33,kulhudhuffushi,6.6221,73.07,301.0,75,50,3.68,MV,1710118669
34,hakha,22.65,93.6167,286.05,37,1,0.45,MM,1710118669
35,micheweni,-4.9667,39.8333,300.75,74,20,2.57,TZ,1710118670
36,bethel,41.3712,-73.414,276.75,79,80,0.45,US,1710118670
37,hervey bay,-25.2986,152.8535,300.38,75,0,4.02,AU,1710118670
38,puerto ayora,-0.7393,-90.3518,300.12,93,60,0.89,EC,1710118671
39,sisimiut,66.9395,-53.6735,256.3,83,99,4.41,GL,1710118671
40,ribeira grande,38.5167,-28.7,290.25,89,100,9.83,PT,1710118671
41,mugia,43.1041,-9.2179,284.77,83,74,5.15,ES,1710118671
42,yuzhno-kurilsk,44.0306,145.8556,272.54,66,100,4.09,RU,1710118671
43,les anglais,18.3054,-74.2197,298.86,85,23,1.09,HT,1710118672
44,istaravshan,39.9142,69.0033,279.17,48,89,3.24,TJ,1710118672
45,iqaluit,63.7506,-68.5145,246.31,68,40,0.0,CA,1710118672
46,klyuchi,52.2667,79.1667,269.04,92,82,4.64,RU,1710118672
47,modra,48.334,17.3071,285.33,82,0,4.63,SK,1710118673
48,waitangi,-43.9535,-176.5597,290.27,90,100,2.68,NZ,1710118673
49,jamestown,42.097,-79.2353,272.92,96,100,8.23,US,1710118673
50,klaksvik,62.2266,-6.589,278.66,86,100,9.88,FO,1710118673
51,smithers,54.7804,-127.1743,278.33,65,75,3.6,CA,1710118673
52,east london,-33.0153,27.9116,296.14,87,29,2.54,ZA,1710118542
53,fortuna,40.5982,-124.1573,282.4,95,100,6.69,US,1710118440
54,grytviken,-54.2811,-36.5092,278.74,94,100,1.74,GS,1710118674
55,yeraliyev,43.2,51.65,275.95,64,35,2.97,KZ,1710118674
56,ponta delgada,37.7333,-25.6667,289.55,82,20,6.69,PT,1710118674
57,eyl,7.9803,49.8164,298.69,77,3,3.78,SO,1710118675
58,kerikeri,-35.2268,173.9474,299.21,59,97,1.34,NZ,1710118675
59,adamstown,-25.066,-130.1015,297.86,66,98,2.36,PN,1710118675
60,saynshand,44.8824,110.1163,261.76,80,9,2.83,MN,1710118675
61,sundumbili,-29.1337,31.3975,296.26,94,22,1.33,ZA,1710118676
62,matoury,4.8483,-52.3317,300.13,83,75,0.51,GF,1710118676
63,abbeville,50.1,1.8333,282.18,92,100,2.65,FR,1710118676
64,callao,-12.0667,-77.15,300.77,73,0,3.6,PE,1710118676
65,port lincoln,-34.7333,135.8667,304.69,37,93,5.82,AU,1710118676
66,shingu,33.7333,135.9833,283.8,42,98,0.99,JP,1710118677
67,longyearbyen,78.2186,15.6401,262.06,79,0,3.09,SJ,1710118677
68,betio village,1.358,172.9211,301.17,83,100,6.52,KI,1710118677
69,holualoa,19.6228,-155.9522,297.06,77,100,3.6,US,1710118677
70,akrehamn,59.2667,5.1833,276.71,52,100,4.12,NO,1710118678
71,west island,-12.1568,96.8225,301.14,89,40,11.83,CC,1710118679
72,kruisfontein,-34.0033,24.7314,289.75,95,10,1.28,ZA,1710118679
73,ippy,6.2679,21.2247,300.0,18,92,1.63,CF,1710118679
74,san luis de la loma,17.2706,-100.8939,297.41,82,0,1.74,MX,1710118680
75,quzhou,28.9594,118.8686,284.13,93,100,1.19,CN,1710118680
76,iskateley,67.6803,53.1512,255.94,95,100,4.47,RU,1710118680
77,lihue,21.9789,-159.3672,296.13,83,75,7.2,US,1710118681
78,bereznik,62.8551,42.7072,270.85,97,100,3.69,RU,1710118681
79,stanley,54.868,-1.6985,277.75,94,75,4.63,GB,1710118681
80,hermanus,-34.4187,19.2345,291.93,83,0,4.58,ZA,1710118681
81,salvaleon de higuey,18.615,-68.708,299.66,91,0,2.16,DO,1710118682
82,mont-de-marsan,44.0,-0.6667,282.47,97,75,3.09,FR,1710118682
83,sremska mitrovica,44.9764,19.6122,288.66,35,100,7.5,RS,1710118682
84,porbandar,21.6422,69.6093,295.71,55,0,3.76,IN,1710118684
85,severo-yeniseyskiy,60.3725,93.0408,270.14,98,100,3.13,RU,1710118684
86,sinabang,2.4803,96.3801,300.89,73,55,0.13,ID,1710118684
87,zaanstad,52.4531,4.8125,281.48,79,0,3.6,NL,1710118684
88,cambria,35.5641,-121.0808,289.95,78,21,2.68,US,1710118685
89,sao tome,0.3365,6.7273,301.31,80,100,3.2,ST,1710118685
90,south hedland,-20.4089,118.5983,304.11,79,100,0.0,AU,1710118685
91,wanxian,30.8039,108.3897,286.25,81,100,1.67,CN,1710118685
92,hadibu,12.65,54.0333,298.64,79,6,1.35,YE,1710118686
93,tura,25.5198,90.2201,291.62,35,0,1.44,IN,1710118686
94,mount pearl,47.5166,-52.7813,271.46,90,100,4.12,CA,1710118686
95,blackmans bay,-43.0167,147.3167,291.22,94,100,0.45,AU,1710118686
96,cabo san lucas,22.8909,-109.9124,296.27,70,57,1.34,MX,1710118674
97,otukpa,7.0892,7.6499,301.18,59,96,3.24,NG,1710118687
98,college,64.8569,-147.8028,260.41,47,75,5.66,US,1710118393
99,ziro,27.6333,93.8333,276.56,72,0,1.02,IN,1710118687
100,siyabuswa,-25.1132,29.0445,294.7,57,0,2.03,ZA,1710118687
101,bilibino,68.0546,166.4372,254.59,92,99,1.19,RU,1710118688
102,belyy yar,53.6039,91.3903,275.09,75,0,4.0,RU,1710118688
103,nova sintra,14.8667,-24.7167,292.44,76,70,7.65,CV,1710118688
104,fuerte olimpo,-21.0415,-57.8738,300.42,73,87,3.21,PY,1710118689
105,fort scott,37.8398,-94.7083,286.44,54,0,3.94,US,1710118689
106,al ghayzah,16.2079,52.176,298.51,85,4,1.58,YE,1710118689
107,st. john's,47.5649,-52.7093,271.92,90,100,4.12,CA,1710118667
108,lepsy,46.235,78.9456,272.17,94,97,1.6,KZ,1710118689
109,sukuta,13.4103,-16.7082,296.16,60,34,3.09,GM,1710118690
110,tanah merah,5.8,102.15,297.05,79,68,1.24,MY,1710118690
111,kapuskasing,49.4169,-82.4331,270.2,50,0,6.17,CA,1710118690
112,sosnovo-ozerskoye,52.5249,111.5418,261.18,96,94,3.61,RU,1710118691
113,thompson,55.7435,-97.8558,276.24,56,20,3.6,CA,1710118432
114,papatowai,-46.5619,169.4708,285.37,69,100,6.95,NZ,1710118691
115,kodiak,57.79,-152.4072,270.88,69,100,5.14,US,1710118691
116,saipan,15.1355,145.701,302.54,65,40,7.72,MP,1710118692
117,dryden,49.7833,-92.7503,276.31,35,0,4.63,CA,1710118692
118,cascais,38.6979,-9.4215,286.45,87,89,0.89,PT,1710118692
119,san patricio,28.017,-97.5169,291.07,53,100,3.71,US,1710118692
120,nar'yan-mar,67.6713,53.087,255.99,95,100,4.47,RU,1710118693
121,isafjordur,66.0755,-23.124,272.56,76,100,1.23,IS,1710118693
122,horsham,51.064,-0.3272,281.62,87,75,1.54,GB,1710118693
123,santo antonio do ica,-3.1022,-67.9397,297.41,98,100,1.18,BR,1710118694
124,minab,27.1467,57.0801,292.52,83,4,0.76,IR,1710118403
125,ilulissat,69.2167,-51.1,247.42,100,66,1.73,GL,1710118694
126,anadyr,64.75,177.4833,249.43,83,20,3.0,RU,1710118694
127,forio,40.7342,13.8646,286.31,90,100,2.24,IT,1710118695
128,bedarieux,43.6155,3.1571,282.44,81,92,4.49,FR,1710118695
129,kyaka,-1.2522,31.4203,290.63,92,45,0.76,TZ,1710118695
130,edinburgh of the seven seas,-37.0676,-12.3116,289.21,70,92,6.34,SH,1710118695
131,susuman,62.7833,148.1667,250.36,91,87,1.34,RU,1710118696
132,pacific grove,36.6177,-121.9166,287.83,73,0,4.12,US,1710118696
133,walvis bay,-22.9575,14.5053,291.68,88,85,2.06,NA,1710118565
134,bulungu,-4.55,18.6,295.36,97,100,0.56,CD,1710118697
135,mafeteng,-29.823,27.2374,291.31,23,0,2.15,LS,1710118698
136,antigonish,45.6169,-61.9986,274.34,95,100,3.58,CA,1710118698
137,porto novo,6.4965,2.6036,300.87,84,71,3.75,BJ,1710118699
138,new norfolk,-42.7826,147.0587,291.88,91,100,1.01,AU,1710118699
139,el matama,16.7095,33.3565,300.64,10,2,3.36,SD,1710118699
140,sinop,41.7711,34.8709,275.44,85,1,3.1,TR,1710118699
141,zakamensk,50.3741,103.2863,262.66,89,74,1.54,RU,1710118700
142,tiksi,71.6872,128.8694,245.68,98,77,1.77,RU,1710118700
143,vrontados,38.4089,26.1328,286.23,67,100,1.51,GR,1710118700
144,vorkuta,67.5,64.0,244.28,100,91,1.97,RU,1710118700
145,quellon,-43.1167,-73.6167,285.56,90,100,2.29,CL,1710118701
146,byron bay,-28.65,153.6167,297.99,57,3,6.23,AU,1710118701
147,san-pedro,4.7485,-6.6363,299.78,92,68,2.24,CI,1710118701
148,necochea,-38.5473,-58.7368,296.13,38,100,3.39,AR,1710118701
149,narasannapeta,18.4167,84.05,297.56,76,7,1.13,IN,1710118702
150,ust-nera,64.5667,143.2,253.42,91,98,0.66,RU,1710118702
151,tsengel,49.4783,100.8894,260.28,82,27,1.89,MN,1710118702
152,den burg,53.0542,4.7972,280.35,90,100,6.69,NL,1710118702
153,katabu,-4.9333,122.5167,299.25,89,100,2.2,ID,1710118703
154,newman,37.3138,-121.0208,291.64,56,100,3.75,US,1710118703
155,candelaria,13.9311,121.4233,298.92,62,77,4.06,PH,1710118704
156,luderitz,-26.6481,15.1594,291.49,74,7,5.28,NA,1710118704
157,whitehorse,60.7161,-135.0538,275.58,35,75,5.66,CA,1710118704
158,talnakh,69.4865,88.3972,247.39,99,96,2.15,RU,1710118704
159,aguada de pasajeros,22.385,-80.8508,299.24,74,77,1.82,CU,1710118705
160,bredasdorp,-34.5322,20.0403,290.15,89,0,2.4,ZA,1710118705
161,queenstown,-31.8976,26.8753,289.04,99,47,0.96,ZA,1710118705
162,tralee,52.2704,-9.7026,280.11,90,90,1.5,IE,1710118705
163,camaiore,43.9097,10.2419,283.16,87,97,2.63,IT,1710118706
164,port mathurin,-19.6833,63.4167,299.61,79,19,10.02,MU,1710118706
165,karratha,-20.7377,116.8463,304.68,53,74,3.55,AU,1710118706
166,puerto aysen,-45.4,-72.7,283.75,99,100,1.82,CL,1710118706
167,parit buntar,5.1267,100.4932,301.14,88,100,1.62,MY,1710118708
168,amahai,-3.3333,128.9167,300.29,80,96,3.11,ID,1710118708
169,mantua,45.1667,10.7833,279.73,96,50,0.89,IT,1710118708
170,kentau,43.5206,68.5094,279.26,72,38,1.35,KZ,1710118709
171,boulogne-sur-mer,50.75,1.8333,281.64,94,100,2.76,FR,1710118709
172,pirallahi,40.4723,50.333,278.23,81,95,3.3,AZ,1710118710
173,neuenkirch,47.0999,8.2042,277.53,98,20,1.03,CH,1710118710
174,wattegama,6.7989,81.4808,294.79,89,25,2.03,LK,1710118710
175,new baltimore,42.6811,-82.7369,276.51,59,40,9.85,US,1710118710
176,chonchi,-42.6128,-73.8092,286.71,98,100,1.18,CL,1710118711
177,pontianak,-0.0333,109.3333,300.14,88,40,1.54,ID,1710118711
178,ancud,-41.8697,-73.8203,287.27,87,100,5.69,CL,1710118711
179,fort st. john,56.2499,-120.8529,274.09,93,100,5.14,CA,1710118501
180,glace bay,46.1969,-59.957,273.4,94,100,10.29,CA,1710118711
181,baiti,13.745,-14.7482,301.86,16,52,4.22,SN,1710118712
182,ad dawadimi,24.5077,44.3924,293.79,15,98,5.57,SA,1710118712
183,broken hill,-31.95,141.4333,304.71,20,44,5.52,AU,1710118712
184,jijiga,9.35,42.8,293.89,62,42,4.54,ET,1710118712
185,minas de marcona,-15.2119,-75.1103,291.89,78,24,5.67,PE,1710118713
186,shihezi,44.3,86.0333,268.69,83,100,1.95,CN,1710118713
187,kenai,60.5544,-151.2583,270.2,74,40,5.14,US,1710118713
188,la'ie,21.6477,-157.9253,299.13,80,100,4.47,US,1710118713
189,lebu,-37.6167,-73.65,287.29,83,100,1.97,CL,1710118714
190,aasiaat,68.7098,-52.8699,249.76,100,95,1.13,GL,1710118714
191,atafu village,-8.5421,-172.5159,302.87,75,95,5.38,TK,1710118714
192,peace river,56.2501,-117.286,278.32,65,75,3.6,CA,1710118448
193,helena valley west central,46.6629,-112.0604,285.64,26,20,7.72,US,1710118714
194,carutapera,-1.195,-46.02,298.75,92,100,2.13,BR,1710118715
195,hamilton,39.1834,-84.5333,278.95,49,20,6.26,US,1710118455
196,latakia,35.5148,35.7768,283.25,65,7,1.38,SY,1710118716
197,fukuecho,32.6881,128.8419,285.35,62,40,4.63,JP,1710118716
198,pemagatshel,27.038,91.4031,286.01,51,0,1.91,BT,1710118717
199,keetmanshoop,-26.5833,18.1333,300.71,14,1,2.65,NA,1710118717
200,banff,51.1762,-115.5698,277.72,64,100,1.54,CA,1710118717
201,ballycastle,55.2044,-6.243,279.29,94,100,7.52,GB,1710118717
202,northam,51.0333,-4.2167,280.03,94,86,0.82,GB,1710118717
203,tome,-36.6167,-72.95,287.49,88,16,1.74,CL,1710118718
204,bharatpur,27.2167,77.4833,292.57,24,90,1.81,IN,1710118718
205,hithadhoo,-0.6,73.0833,301.14,72,12,3.76,MV,1710118718
206,yaren,-0.5472,166.916,301.59,82,73,6.52,NR,1710118719
207,alice springs,-23.7,133.8833,307.16,36,40,6.17,AU,1710118720
208,mitu,1.1983,-70.1733,298.12,84,100,0.98,CO,1710118720
209,lalganj,25.8667,85.1833,289.12,32,0,1.11,IN,1710118720
210,carnarvon,-24.8667,113.6333,302.03,58,0,6.53,AU,1710118720
211,happy valley-goose bay,53.3168,-60.3315,275.32,41,100,2.57,CA,1710118720
212,arkhangel'sk,64.5401,40.5433,273.21,100,75,5.0,RU,1710118721
213,amarante do maranhao,-5.5667,-46.7422,297.41,91,56,1.57,BR,1710118721
214,geraldton,-28.7667,114.6,297.38,53,0,4.63,AU,1710118721
215,prado,-17.3411,-39.2208,300.2,87,98,4.67,BR,1710118721
216,uzgen,40.7699,73.3007,277.31,68,100,1.85,KG,1710118722
217,alo,7.4178,6.7371,303.03,67,70,2.91,NG,1710118722
218,kuhdasht,33.535,47.6061,280.39,71,100,1.75,IR,1710118722
219,merlo,-32.3429,-65.014,296.37,83,4,4.54,AR,1710118722
220,santa cruz,-17.8,-63.1667,299.85,83,63,2.57,BO,1710118722
221,la ferte-saint-aubin,47.7169,1.939,277.19,93,98,1.97,FR,1710118723
222,changyon,38.2508,125.0961,279.38,74,100,6.12,KP,1710118723
223,haiku-pauwela,20.9219,-156.3051,297.16,72,20,10.29,US,1710118723
224,bac lieu,9.285,105.7244,300.79,68,2,7.13,VN,1710118724
225,saint-philippe,-21.3585,55.7679,298.92,85,29,5.68,RE,1710118724
226,bayanhongor,46.7167,100.1167,253.5,71,6,1.67,MN,1710118724
227,margaret river,-33.95,115.0667,291.1,61,0,4.81,AU,1710118725
228,quesnel,52.9999,-122.5029,282.43,43,75,5.66,CA,1710118725
229,mahibadhoo,3.7833,72.9667,301.0,76,100,4.47,MV,1710118725
230,tofol,5.3248,163.0078,304.03,70,75,9.26,FM,1710118725
231,kapa'a,22.0752,-159.319,299.14,77,75,7.2,US,1710118471
232,sfax,34.7406,10.7603,288.23,63,40,4.63,TN,1710118726
233,lorengau,-2.0226,147.2712,301.59,81,98,5.33,PG,1710118726
234,mossel bay,-34.1831,22.146,291.11,88,0,2.07,ZA,1710118726
235,formosa do rio preto,-11.0483,-45.1931,296.9,74,72,0.85,BR,1710118727
236,kourou,5.1552,-52.6478,300.18,80,94,2.86,GF,1710118727
237,carbonear,47.7332,-53.2148,272.18,86,91,3.46,CA,1710118727
238,qaqortoq,60.7167,-46.0333,261.18,96,15,2.33,GL,1710118727
239,tashla,51.7716,52.7427,262.25,97,100,2.03,RU,1710118727
240,cabedelo,-6.9811,-34.8339,300.52,76,100,4.24,BR,1710118728
241,vizinga,61.0749,50.1031,251.19,100,100,1.35,RU,1710118728
242,port alfred,-33.5906,26.891,296.43,88,77,2.71,ZA,1710118728
243,lubang,13.8584,120.124,299.0,74,100,9.01,PH,1710118729
244,comodoro rivadavia,-45.8667,-67.5,294.07,30,0,9.26,AR,1710118729
245,traverse city,44.7631,-85.6206,276.19,59,0,6.17,US,1710118729
246,vadso,70.0744,29.7487,274.64,86,20,6.69,NO,1710118730
247,turpan,42.9333,89.1667,282.73,23,32,1.42,CN,1710118730
248,yarmouth,41.7057,-70.2286,280.45,71,100,6.71,US,1710118730
249,newport,51.5877,-2.9984,281.55,90,100,3.6,GB,1710118730
250,spanish springs,39.6491,-119.7074,285.54,46,100,7.15,US,1710118730
251,filingue,14.3521,3.3168,302.46,12,30,4.82,NE,1710118731
252,morrilton,35.1509,-92.744,286.92,57,100,0.97,US,1710118731
253,rikaze,29.25,88.8833,273.55,44,0,1.13,CN,1710118731
254,lompoc,34.6391,-120.4579,290.25,67,40,5.66,US,1710118731
255,carauari,-4.8828,-66.8958,297.92,96,100,0.93,BR,1710118732
256,mana,5.6592,-53.7767,299.27,79,100,4.05,GF,1710118732
257,margate,51.3813,1.3862,280.87,94,100,2.01,GB,1710118515
258,wabag,-5.4781,143.7021,292.32,86,91,1.39,PG,1710118732
259,areia branca,-4.9561,-37.1369,300.36,82,95,6.19,BR,1710118733
260,coquimbo,-29.9533,-71.3436,290.0,82,0,2.06,CL,1710118733
261,vorgashor,67.5833,63.95,244.45,100,92,2.07,RU,1710118733
262,shakhtinsk,49.71,72.5872,267.76,96,98,5.34,KZ,1710118733
263,sodankyla,67.4167,26.6,273.09,92,100,2.44,FI,1710118734
264,poronaysk,49.2167,143.1167,264.32,81,21,1.21,RU,1710118734
265,sabha,27.0377,14.4283,292.43,21,0,5.51,LY,1710118734
266,daru,-9.0763,143.2092,301.8,81,100,3.44,PG,1710118734
267,kirakira,-10.4544,161.9205,300.63,90,100,6.63,SB,1710118735
268,kristiansund,63.1115,7.732,273.51,59,95,2.06,NO,1710118735
269,mo i rana,66.3128,14.1428,264.41,86,75,0.0,NO,1710118735
270,petropavlovsk-kamchatsky,53.0452,158.6483,273.48,77,75,6.0,RU,1710118735
271,marand,38.4329,45.7749,274.58,85,7,1.13,IR,1710118736
272,toliara,-23.35,43.6667,298.69,84,98,2.84,MG,1710118736
273,aykhal,66.0,111.5,253.05,100,100,2.74,RU,1710118736
274,la ronge,55.1001,-105.2842,283.29,37,40,4.12,CA,1710118736
275,fort bragg,35.139,-79.006,285.9,26,0,6.69,US,1710118736
276,mejit,10.2753,170.8646,299.92,83,90,9.5,MH,1710118737
277,badger,64.8,-147.5333,260.92,52,75,5.66,US,1710118737
278,praia da vitoria,38.7333,-27.0667,289.68,88,75,9.55,PT,1710118737
279,wau,7.7029,27.9953,300.9,21,9,1.84,SS,1710118737
280,guane,22.2025,-84.0875,298.45,81,79,2.45,CU,1710118737
281,remire-montjoly,4.9167,-52.2667,300.17,83,75,0.51,GF,1710118738
282,palmer,42.1584,-72.3287,277.51,74,56,5.56,US,1710118738
283,buka,40.8108,69.1986,281.18,76,95,2.13,UZ,1710118738
284,cape coast,5.1053,-1.2466,300.33,92,100,3.56,GH,1710118738
285,kone,-21.0595,164.8658,302.56,64,100,5.51,NC,1710118739
286,san antonio de pale,-1.4014,5.6325,301.79,76,92,3.49,GQ,1710118739
287,labuan bajo,-8.4964,119.8877,298.92,93,100,5.22,ID,1710118739
288,enewetak,11.3474,162.3373,299.8,73,100,8.33,MH,1710118739
289,ta`u,-14.2336,-169.5144,301.73,77,100,1.88,AS,1710118740
290,surin,14.8818,103.4936,299.36,61,54,4.55,TH,1710118740
291,uturoa,-16.7333,-151.4333,301.37,78,58,3.94,PF,1710118740
292,winnemucca,40.973,-117.7357,286.18,22,0,4.63,US,1710118741
293,acapulco de juarez,16.8634,-99.8901,298.14,77,0,2.02,MX,1710118741
294,kokpekty,48.75,82.4,270.56,98,100,0.56,KZ,1710118741
295,okha,53.5739,142.9478,261.93,89,49,3.61,RU,1710118742
296,sechura,-5.5569,-80.8222,300.23,61,47,7.02,PE,1710118742
297,aliwal north,-30.6937,26.7114,291.21,71,0,2.58,ZA,1710118522
298,nanyamba,-10.6833,39.8333,295.08,97,98,0.99,TZ,1710118742
299,boda,4.3189,17.4695,298.69,51,97,1.03,CF,1710118743
300,codrington,-38.2667,141.9667,307.26,21,100,7.83,AU,1710118743
301,higuera de zaragoza,25.95,-109.2833,292.91,64,0,4.06,MX,1710118743
302,pisco,-13.7,-76.2167,297.18,73,0,8.23,PE,1710118744
303,kavieng,-2.5744,150.7967,300.02,91,100,6.53,PG,1710118744
304,bom jesus,-9.0744,-44.3586,302.23,50,92,1.61,BR,1710118744
305,orikhiv,47.5673,35.7858,274.53,80,97,3.66,UA,1710118744
306,ust'-ordynskiy,52.805,104.7508,265.0,93,100,1.68,RU,1710118745
307,igarka,67.4667,86.5833,239.11,100,100,1.28,RU,1710118745
308,fukura,34.25,134.7167,282.31,61,75,2.57,JP,1710118745
309,red deer,52.2668,-113.802,277.81,65,40,4.63,CA,1710118588
310,karambakkudi,10.4667,79.1333,295.75,88,47,2.39,IN,1710118746
311,punta del este,-34.9667,-54.95,293.64,76,0,4.12,UY,1710118746
312,touros,-5.1989,-35.4608,301.31,75,100,4.58,BR,1710118746
313,constantia,44.1833,28.65,279.65,88,100,6.94,RO,1710118747
314,kolonia,50.9333,6.95,282.57,85,75,2.06,DE,1710118530
315,mount isa,-20.7333,139.5,304.02,48,5,6.69,AU,1710118747
316,volodymyr-volynskyi,50.8525,24.3236,275.96,70,100,8.56,UA,1710118582
317,utrik,11.2278,169.8474,299.88,79,64,9.49,MH,1710118748
318,fort wellington,6.4,-57.6,299.42,76,100,5.15,GY,1710118748
319,guymon,36.6828,-101.4816,291.15,17,0,3.09,US,1710118748
320,sitka,57.0531,-135.33,275.09,87,100,1.54,US,1710118748
321,torit,4.4133,32.5678,301.02,49,100,1.59,SS,1710118749
322,segezha,63.7415,34.3222,270.37,86,100,6.44,RU,1710118749
323,alofi,-19.0595,-169.9187,302.09,84,100,2.06,NU,1710118749
324,ust-tsilma,65.441,52.1498,251.1,99,100,1.81,RU,1710118749
325,malvan,16.0667,73.4667,297.77,51,2,4.5,IN,1710118750
326,errachidia,31.9275,-4.4285,289.18,23,0,4.12,MA,1710118750
327,syktyvkar,61.6764,50.8099,248.0,84,0,2.0,RU,1710118751
328,cannonvale,-20.2833,148.7,298.81,75,42,9.58,AU,1710118751
329,nuku'alofa,-21.1333,-175.2,300.34,94,100,4.63,TO,1710118751
330,santa rosalia,27.3167,-112.2833,292.93,37,0,1.53,MX,1710118751
331,puerto ayacucho,5.6639,-67.6236,301.38,73,100,2.67,VE,1710118752
332,nemuro,43.3236,145.575,272.71,65,93,5.92,JP,1710118752
333,teguise,29.0605,-13.564,289.27,82,75,2.57,ES,1710118752
334,treasure island,27.7692,-82.769,292.15,77,0,7.2,US,1710118753
335,greymouth,-42.4667,171.2,285.64,94,100,2.24,NZ,1710118753
336,port augusta,-32.5,137.7667,309.13,18,37,8.07,AU,1710118611
337,ghanzi,-21.5667,21.7833,296.46,46,0,2.97,BW,1710118753
338,kodinsk,58.6881,99.1844,274.51,98,100,4.77,RU,1710118754
339,prince rupert,54.3161,-130.3201,275.98,100,100,4.12,CA,1710118661
340,itaituba,-4.2761,-55.9836,297.44,98,62,0.88,BR,1710118754
341,sao gabriel da cachoeira,-0.1303,-67.0892,297.37,96,100,1.1,BR,1710118755
342,darovskoy,58.77,47.9564,253.95,100,100,1.53,RU,1710118755
343,usogorsk,63.4106,48.6872,257.41,96,100,2.98,RU,1710118755
344,kenora,49.8167,-94.4337,278.69,38,75,5.14,CA,1710118649
345,miguel ahumada,30.6167,-106.5167,290.54,27,0,3.81,MX,1710118756
346,inarajan village,13.2736,144.7484,302.26,79,9,9.36,GU,1710118756
347,lijiang,26.8688,100.2207,281.43,51,0,0.73,CN,1710118756
348,kill devil hills,36.0307,-75.676,286.15,39,100,8.75,US,1710118757
349,ha'il,27.5219,41.6907,294.16,26,0,8.23,SA,1710118757
350,hammerfest,70.6634,23.6821,274.4,93,100,0.0,NO,1710118757
351,freeport,40.6576,-73.5832,278.69,64,98,8.49,US,1710118758
352,la passe,45.5549,-0.8967,279.28,86,100,2.46,FR,1710118758
353,gorom-gorom,14.4439,-0.2361,304.48,11,4,2.76,BF,1710118758
354,ocos,14.5094,-92.1933,300.36,72,5,2.79,GT,1710118758
355,puerto lempira,15.2667,-83.7667,302.23,74,0,5.14,HN,1710118759
356,gurlan,41.8447,60.3919,280.1,45,100,4.19,UZ,1710118759
357,pangody,65.85,74.4859,247.49,97,100,2.07,RU,1710118759
358,selfoss,63.9331,-20.9971,270.95,72,47,2.52,IS,1710118759
359,naama,33.2667,-0.3167,279.84,65,0,7.94,DZ,1710118760
360,shelton,41.3165,-73.0932,277.6,84,100,5.14,US,1710118637
361,plettenberg bay,-34.0527,23.3716,290.2,89,0,1.34,ZA,1710118760
362,neftegorsk,52.802,51.166,263.37,97,100,1.38,RU,1710118760
363,zamberk,50.086,16.4674,285.22,79,100,7.51,CZ,1710118761
364,nadym,65.5333,72.5167,248.42,97,100,2.1,RU,1710118761
365,hulan,45.9833,126.6,273.21,87,6,2.25,CN,1710118761
366,shatrovo,56.5167,64.6333,263.83,97,93,2.63,RU,1710118761
367,sibiti,-3.6819,13.3499,294.81,97,99,0.98,CG,1710118762
368,howrah,22.5892,88.3103,293.15,64,1,2.57,IN,1710118762
369,afaahiti,-17.75,-149.2833,303.08,77,80,2.6,PF,1710118762
370,benguela,-12.5763,13.4055,300.56,80,100,3.51,AO,1710118762
371,malango,-2.9627,119.9001,297.66,75,86,0.46,ID,1710118763
372,port arthur,38.8,121.2667,279.27,86,99,3.47,CN,1710118763
373,tommot,58.9564,126.2925,258.39,93,99,0.45,RU,1710118763
374,san juan,-31.5375,-68.5364,302.77,50,0,1.51,AR,1710118568
375,parry sound,45.3501,-80.033,273.1,80,100,7.89,CA,1710118763
376,tosontsengel,48.7567,98.2839,253.64,92,41,0.35,MN,1710118764
377,arraial do cabo,-22.9661,-42.0278,298.02,94,76,7.65,BR,1710118764
378,nuuk,64.1835,-51.7216,259.62,85,95,2.29,GL,1710118764
379,concepcion,-36.827,-73.0498,288.04,77,0,4.12,CL,1710118764
380,romny,50.751,33.4747,270.41,71,6,3.43,UA,1710118764
381,nombre de dios,23.85,-104.2333,295.9,18,100,5.87,MX,1710118765
382,ormara,25.2088,64.6357,295.41,75,100,1.42,PK,1710118765
383,sulphur,30.2366,-93.3774,291.13,45,0,2.06,US,1710118765
384,kattivakkam,13.2167,80.3167,300.2,80,88,1.84,IN,1710118765
385,jaen,38.0,-3.5,281.45,94,47,4.75,ES,1710118503
386,tindouf,27.6711,-8.1474,288.4,72,0,8.75,DZ,1710118766
387,buxar,25.5833,83.9833,289.02,28,0,0.81,IN,1710118767
388,acarau,-2.8856,-40.12,299.19,88,100,3.12,BR,1710118767
389,belokurikha,51.9959,84.9896,271.92,97,100,1.62,RU,1710118767
390,estacion coahuila,32.1939,-115.0017,298.23,17,4,1.25,MX,1710118767
391,turkmenbasy,40.0222,52.9552,280.58,81,100,3.09,TM,1710118767
392,kiunga,-6.1219,141.2906,299.8,96,97,2.05,PG,1710118768
393,metlika,45.6472,15.3142,283.38,90,100,1.04,SI,1710118768
394,fortaleza,-3.7227,-38.5247,301.22,83,40,1.54,BR,1710118540
395,taltal,-25.4,-70.4833,293.52,77,94,1.7,CL,1710118768
396,kayangel,8.0823,134.7173,300.82,79,100,6.41,PW,1710118769
397,olyokminsk,60.3736,120.4264,262.62,93,100,1.49,RU,1710118769
398,pailon,-17.65,-62.75,300.65,78,100,2.29,BO,1710118769
399,duvall,47.7423,-121.9857,281.58,92,100,0.89,US,1710118769
400,puerto pilon,9.3644,-79.7933,301.36,83,9,3.69,PA,1710118769
401,vila velha,-20.3297,-40.2925,300.12,95,75,1.54,BR,1710118770
402,korenovsk,45.4686,39.4519,278.61,81,96,5.24,RU,1710118770
403,kismayo,-0.3582,42.5454,300.64,71,1,5.63,SO,1710118770
404,namtsy,62.7161,129.6658,252.45,95,100,0.94,RU,1710118771
405,show low,34.2542,-110.0298,286.31,28,0,5.66,US,1710118771
406,gurupa,-1.405,-51.64,297.27,98,100,1.18,BR,1710118771
407,nyurba,63.2842,118.3319,259.16,95,89,1.74,RU,1710118771
408,ulanhot,46.0833,122.0833,273.76,37,17,3.95,CN,1710118772
409,bandarbeyla,9.4942,50.8122,299.07,77,7,3.05,SO,1710118772
410,sao joao do paraiso,-15.3136,-42.0144,297.2,64,98,0.63,BR,1710118772
411,mainleus,50.1,11.3833,281.49,94,100,3.84,DE,1710118772
412,riachao,-7.3619,-46.6172,299.41,72,75,1.92,BR,1710118773
413,lisakovsk,52.5369,62.4936,256.99,97,29,3.56,KZ,1710118773
414,avarua,-21.2078,-159.775,300.18,89,100,4.63,CK,1710118773
415,chibougamau,49.9168,-74.3659,272.94,100,100,4.63,CA,1710118773
416,kirillov,59.863,38.3813,265.92,96,100,3.01,RU,1710118773
417,gorontalo,0.5412,123.0595,302.32,65,100,2.41,ID,1710118774
418,tadine,-21.55,167.8833,299.68,84,100,12.56,NC,1710118774
419,tara,56.8944,74.371,262.71,96,100,1.15,RU,1710118774
420,andratx,39.5755,2.4202,287.28,63,0,7.69,ES,1710118775
421,mahdia,35.5047,11.0622,287.12,76,0,4.99,TN,1710118775
422,nantucket,41.2835,-70.0995,281.23,81,100,7.2,US,1710118775
423,madimba,-10.4,40.3333,299.61,86,99,2.04,TZ,1710118776
424,bubaque,11.2833,-15.8333,298.99,67,12,8.7,GW,1710118776
425,guiuan,11.0333,125.7247,299.68,82,8,5.78,PH,1710118776
426,fray luis beltran,-39.3167,-65.7667,294.67,48,44,3.74,AR,1710118776
427,umm kaddadah,13.6017,26.6876,300.24,9,10,4.44,SD,1710118777
428,tarrafal de sao nicolau,16.5667,-24.3667,294.81,73,17,7.26,CV,1710118777
429,dudinka,69.4058,86.1778,242.41,100,93,1.34,RU,1710118777
430,nurhak,37.9629,37.4202,274.02,70,0,2.48,TR,1710118778
431,gracemere,-23.4333,150.45,302.1,58,75,6.69,AU,1710118778
432,diebougou,10.9667,-3.25,306.37,34,93,1.6,BF,1710118778
433,el granada,37.5027,-122.4694,290.07,69,0,5.66,US,1710118778
434,khandyga,62.6667,135.6,249.44,96,100,0.07,RU,1710118778
435,shupiyan,33.7167,74.8333,275.62,80,98,1.04,IN,1710118779
436,bologoye,57.8799,34.1068,270.08,94,100,2.86,RU,1710118779
437,imbituba,-28.24,-48.6703,296.0,92,42,3.46,BR,1710118779
438,ola,59.5833,151.2833,267.12,88,100,5.14,RU,1710118780
439,papao,-17.75,-149.55,303.97,77,40,3.82,PF,1710118780
440,nova vicosa,-17.8919,-39.3719,300.31,85,100,4.99,BR,1710118781
441,lata,40.1629,-8.3327,283.1,95,99,1.18,PT,1710118781
442,prabumulih,-3.45,104.25,297.63,95,100,1.92,ID,1710118781
443,sao vicente,-23.9631,-46.3919,300.25,26,91,2.04,BR,1710118782
444,grand-bassam,5.2118,-3.7388,301.13,88,21,2.97,CI,1710118782
445,portland,45.5234,-122.6762,283.47,90,100,6.71,US,1710118492
446,jayapura,-2.5333,140.7,301.81,74,93,1.31,ID,1710118782
447,paris,48.8534,2.3488,281.01,93,0,3.09,FR,1710118641
448,tamandare,-8.7597,-35.1047,300.18,76,90,2.52,BR,1710118783
449,guelendeng,10.9176,15.5501,302.51,14,24,2.34,TD,1710118783
450,colonia,50.9333,6.95,282.57,85,75,2.06,DE,1710118783
451,qarauyl,48.9451,79.255,267.02,89,29,3.16,KZ,1710118783
452,sendafa,9.15,39.0333,286.28,82,39,1.74,ET,1710118783
453,bismarck,46.8083,-100.7837,283.63,50,0,1.54,US,1710118777
454,menongue,-14.6585,17.691,290.22,97,85,1.33,AO,1710118784
455,beichengqu,40.4394,113.1536,273.12,45,2,6.42,CN,1710118784
456,yanam,16.7333,82.2167,297.01,80,100,1.31,IN,1710118784
457,san estanislao,10.3983,-75.1511,302.09,77,9,4.06,CO,1710118785
458,inhambane,-23.865,35.3833,299.56,85,94,5.78,MZ,1710118785
459,san pedro pochutla,15.7333,-96.4667,297.61,76,0,1.42,MX,1710118785
460,chul'man,56.8479,124.9104,258.08,93,100,0.65,RU,1710118786
461,marine corps base hawaii - mcbh,21.4453,-157.7513,299.13,69,40,5.66,US,1710118786
462,bria,6.5423,21.9863,298.75,19,99,0.91,CF,1710118786
463,ballina,-28.8667,153.5667,298.03,55,13,6.04,AU,1710118786
464,mount gambier,-37.8333,140.7667,307.59,19,100,5.63,AU,1710118787
465,dampit,-8.2116,112.7493,296.48,91,100,0.41,ID,1710118787
466,kazerun,29.6195,51.6541,286.67,35,60,2.6,IR,1710118787
467,mweka,-4.85,21.5667,293.55,99,100,0.46,CD,1710118787
468,taro,-8.3862,115.28,294.18,91,100,0.35,ID,1710118787
469,acajutla,13.5928,-89.8275,300.06,77,0,2.5,SV,1710118788
470,port moresby,-9.4431,147.1797,301.33,77,100,3.31,PG,1710118788
471,griffith,41.5284,-87.4237,279.29,72,0,2.06,US,1710118788
472,pemangkat,1.1667,108.9667,299.82,85,96,3.29,ID,1710118788
473,hobyo,5.3505,48.5268,300.99,71,80,5.25,SO,1710118788
474,tamanrasset,22.785,5.5228,286.1,11,0,2.06,DZ,1710118789
475,zouerate,22.7187,-12.4521,291.92,35,11,2.87,MR,1710118789
476,kingscliff,-28.2667,153.5667,300.22,69,75,10.8,AU,1710118789
477,aginskoye,51.1,114.53,267.05,78,16,2.38,RU,1710118789
478,mbanza kongo,-6.267,14.2401,295.69,95,100,1.02,AO,1710118790
479,hilo,19.7297,-155.09,297.19,81,100,3.6,US,1710118681
480,kupang,-10.1667,123.5833,302.47,89,75,6.69,ID,1710118790
481,pio xii,-3.8325,-45.1525,297.54,97,36,1.89,BR,1710118790
482,brandfort,-28.7001,26.4597,287.82,37,0,5.0,ZA,1710118790
483,mingshui,36.7167,117.5,286.81,45,0,3.43,CN,1710118791
484,castillos,-34.1667,-53.8333,290.97,68,100,3.18,UY,1710118791
485,joshimath,30.5667,79.5667,281.19,74,83,1.62,IN,1710118791
486,weno,7.4515,151.8468,300.49,74,100,10.26,FM,1710118791
487,totness,5.8833,-56.3167,299.3,77,68,5.09,SR,1710118791
488,hotan,37.0997,79.9269,280.4,31,100,2.71,CN,1710118792
489,dingli,35.8614,14.3822,287.24,82,20,9.26,MT,1710118792
490,tobelo,1.7284,128.0095,300.97,77,100,3.29,ID,1710118792
491,pontremoli,44.3751,9.8789,281.56,88,97,0.74,IT,1710118792
492,konibodom,40.2843,70.4426,282.11,69,100,3.06,TJ,1710118793
493,nadvoitsy,63.8667,34.3167,270.44,87,100,5.83,RU,1710118793
494,brookings,44.3114,-96.7984,284.92,38,7,3.96,US,1710118793
495,kingston,17.997,-76.7936,301.68,79,20,4.63,JM,1710118791
496,sharkan,57.2989,53.8712,250.44,100,100,1.34,RU,1710118794
497,richards bay,-28.783,32.0377,296.52,96,6,1.8,ZA,1710118794
498,tremonton,41.7119,-112.1655,285.96,30,0,1.54,US,1710118794
499,sao paulo de olivenca,-3.3783,-68.8725,297.53,96,88,1.0,BR,1710118794
500,al jawf,29.5,38.75,285.42,52,0,6.69,SA,1710118796
501,arteche,12.2645,125.4048,299.79,81,95,3.81,PH,1710118796
502,bhan,26.5583,67.7214,291.65,42,0,1.88,PK,1710118796
503,aripuana,-9.1667,-60.6333,298.24,93,47,0.27,BR,1710118796
504,pont rouge,48.8833,-72.0825,273.31,98,100,3.35,CA,1710118797
505,varto,39.1732,41.4559,268.46,84,49,2.23,TR,1710118797
506,wahpeton,46.2652,-96.6059,283.16,29,0,5.14,US,1710118594
507,anna regina,7.2644,-58.5077,299.49,81,86,4.6,GY,1710118797
508,colares,38.7992,-9.4469,286.35,88,72,0.89,PT,1710118799
509,es castell,39.8795,4.2854,285.53,71,0,3.09,ES,1710118799
510,sao felix do xingu,-6.6447,-51.995,297.72,94,60,0.6,BR,1710118799
511,novyy turtkul',41.55,61.0167,279.1,53,100,3.92,UZ,1710118799
512,berdigestyakh,62.0989,126.6992,254.76,97,94,1.67,RU,1710118799
513,saskatoon,52.1168,-106.6345,275.14,80,20,6.17,CA,1710118051
514,huilong,31.8111,121.655,280.8,94,100,4.03,CN,1710118800
515,chokwe,-24.5333,32.9833,296.48,99,40,2.42,MZ,1710118800
516,ar ruways,24.1103,52.7306,294.01,61,1,3.23,AE,1710118801
517,yatou,37.15,122.3833,279.09,77,100,7.28,CN,1710118802
518,princeville,45.7668,-61.2985,274.07,94,100,9.77,CA,1710118803
519,medicine hat,50.0501,-110.6683,284.39,47,40,8.75,CA,1710118807
520,pierre,44.3683,-100.351,289.66,34,0,2.57,US,1710118740
521,thurgoona,-36.0451,146.9919,303.04,29,100,2.57,AU,1710118808
522,saint-pierre,-21.3393,55.4781,298.97,78,28,3.09,RE,1710118762
523,siwa oasis,29.2041,25.5195,287.27,58,0,3.7,EG,1710118809
524,ovria,38.1833,21.7167,287.11,74,100,5.49,GR,1710118810
525,ust'-ilimsk,58.0006,102.6619,271.73,86,100,5.81,RU,1710118811
526,hasaki,35.7333,140.8333,281.37,65,99,4.37,JP,1710118817
527,sokoni,-6.4333,39.55,301.67,70,95,3.92,TZ,1710118818
528,svetlyy,54.675,20.1347,274.46,68,8,9.41,RU,1710118820
529,dickinson,29.4608,-95.0513,292.1,58,0,2.57,US,1710118820
530,loanda,-8.8368,13.2343,300.15,83,40,3.6,AO,1710118658
531,kaoma,-14.7833,24.8,291.81,87,14,2.05,ZM,1710118821
532,xichang,27.8964,102.2634,282.92,66,28,0.74,CN,1710118821
533,kotdwara,29.75,78.5333,291.09,41,80,3.02,IN,1710118822
534,crane,31.3974,-102.3501,288.29,34,6,5.66,US,1710118823
535,port hedland,-20.3167,118.5667,304.18,79,100,0.0,AU,1710118823
536,al bayda',32.7627,21.7551,287.41,52,0,5.25,LY,1710118825
537,udachny,66.4167,112.4,255.62,84,86,2.34,RU,1710118826
538,puerto gaitan,4.3133,-72.0816,304.16,53,100,2.29,CO,1710118827
539,vilyuysk,63.7553,121.6247,254.26,96,92,1.34,RU,1710118827
540,machico,32.7,-16.7667,290.21,80,40,2.06,PT,1710118827
541,yeniseysk,58.4497,92.1703,273.12,98,89,3.58,RU,1710118828
542,pontes e lacerda,-15.2261,-59.3353,301.33,68,99,1.05,BR,1710118829
543,namibe,-15.1961,12.1522,299.17,88,100,3.16,AO,1710118829
544,lebowakgomo,-24.2,29.5,289.4,76,0,1.77,ZA,1710118830
545,ugoofaaru,5.6667,73.0,301.0,78,26,4.52,MV,1710118830
546,salem,11.65,78.1667,294.96,71,94,1.25,IN,1710118540
547,flying fish cove,-10.4217,105.6791,300.97,89,100,5.66,CX,1710118831
548,oroqen zizhiqi,50.5667,123.7167,267.7,63,8,1.48,CN,1710118832
549,kavaratti,10.5669,72.642,301.45,65,87,5.0,IN,1710118832
550,galle,6.0367,80.217,298.62,85,13,1.97,LK,1710118833
551,shagonar,51.5333,92.8,256.8,97,100,0.57,RU,1710118834
552,ciudad acuna,29.3232,-100.9522,292.47,38,0,4.12,MX,1710118834
553,saint-felicien,48.6501,-72.4491,273.53,100,100,2.06,CA,1710118835
554,arno,60.1167,18.6333,271.36,84,100,3.28,SE,1710118835
555,chimbote,-9.0853,-78.5783,294.73,88,100,5.99,PE,1710118826
556,sihanoukville,10.6093,103.5296,300.12,78,40,1.54,KH,1710118836
557,nogliki,51.8333,143.1667,263.9,89,84,1.34,RU,1710118837
558,qarqaraly,49.4058,75.4742,264.79,94,23,3.71,KZ,1710118837
559,shijiazhuang,38.0414,114.4786,282.07,31,0,3.16,CN,1710118838
560,tarawa,1.419,172.984,301.2,100,75,4.63,KI,1710118839
561,saint croix,17.7397,-64.7388,297.01,85,1,1.79,VI,1710118839
562,kailua-kona,19.6406,-155.9956,298.86,81,100,0.45,US,1710118841
563,manta,-0.95,-80.7333,301.03,84,0,4.92,EC,1710118771
564,ronne,55.1009,14.7066,277.1,75,76,9.26,DK,1710118842
565,abu dhabi,24.4667,54.3667,295.34,85,3,0.51,AE,1710118816
566,pampa,35.5362,-100.9599,289.17,27,0,4.63,US,1710118842
567,illapel,-31.6308,-71.1653,294.24,62,0,1.47,CL,1710118667
568,tynda,55.1667,124.7167,258.6,83,96,1.57,RU,1710118843
569,slave lake,55.2834,-114.769,277.14,60,100,0.0,CA,1710118666
570,rio gallegos,-51.6226,-69.2181,281.18,53,0,5.66,AR,1710118844
571,piet retief,-27.0071,30.8132,289.77,94,67,0.6,ZA,1710118845
572,aleksandrovsk-sakhalinskiy,50.8975,142.1561,267.35,84,74,1.85,RU,1710118846
573,port macquarie,-31.4333,152.9167,300.31,54,63,3.56,AU,1710118655
574,imperatriz,-5.5264,-47.4917,298.15,90,96,0.99,BR,1710118848
575,maumere,-8.6199,122.2111,299.86,90,100,6.93,ID,1710118848
576,fale old settlement,-9.3852,-171.2468,302.5,75,8,4.14,TK,1710118848
577,datca,36.7378,27.6842,287.57,57,94,1.77,TR,1710118850
578,grajau,-5.8194,-46.1386,298.74,89,76,1.66,BR,1710118851
579,coyhaique,-45.5752,-72.0662,286.12,58,75,4.12,CL,1710118831
580,taber,49.8167,-112.1518,279.97,56,100,4.49,CA,1710118807
581,arawa,-6.2132,155.5367,303.64,80,68,2.13,PG,1710118853
582,dakhla,23.6848,-15.958,289.91,86,98,7.18,EH,1710118853
583,golere,16.2557,-14.1017,300.7,12,85,5.85,SN,1710118854
584,mountain home,43.133,-115.6912,282.86,43,20,8.75,US,1710118830
585,weyburn,49.6668,-103.8511,279.27,56,69,3.6,CA,1710118854
586,safi,32.1667,-8.8333,283.29,79,100,3.63,MA,1710118855
